[
  {
    "id": 1,
    "address": "S. Daukanto g. 23",
    "name": "Restoranas",
    "city": "Kaunas",
    "time": "3/7/2020 18:00",
    "latitude": 54.8980147,
    "longitude": 23.9134134,
    "timestamp": 1583596800.0
  },
  {
    "id": 2,
    "address": "Kernavės g. 84",
    "name": "Compensa koncertų salė",
    "city": "Vilnius",
    "time": "3/8/2020 18:00",
    "latitude": 54.71158055,
    "longitude": 25.276634955,
    "timestamp": 1583683200.0
  },
  {
    "id": 3,
    "address": "V. Grybo g. 21",
    "name": "Šilo Maxima",
    "city": "Vilnius",
    "time": "3/9/2020 17:45",
    "latitude": 54.7038389,
    "longitude": 25.3162598378,
    "timestamp": 1583768700.0
  },
  {
    "id": 4,
    "address": "Saltoniškių g. 9",
    "name": "PC Panorama",
    "city": "Vilnius",
    "time": "3/11/2020 18:00",
    "latitude": 54.6993582,
    "longitude": 25.2583631,
    "timestamp": 1583942400.0
  },
  {
    "id": 5,
    "address": "Vytauto pr. 24",
    "name": "Kauno stotis",
    "city": "Kaunas",
    "time": "3/10/2020 16:00",
    "latitude": 54.8890485,
    "longitude": 23.9278384,
    "timestamp": 1583848800.0
  },
  {
    "id": 6,
    "address": "Sodų g. 22",
    "name": " Vilniaus stotis",
    "city": "Vilnius",
    "time": "3/10/2020 17:00",
    "latitude": 54.67076335,
    "longitude": 25.2818261837,
    "timestamp": 1583852400.0
  },
  {
    "id": 7,
    "address": "Senasis Ukmergės kl. 8",
    "name": "IKI",
    "city": "Bendoriai",
    "time": "3/13/2020 16:00",
    "latitude": 54.7696406,
    "longitude": 25.1952398,
    "timestamp": 1584108000.0
  },
  {
    "id": 8,
    "address": "Tuskulėnų g. 66",
    "name": "Tuskulėnų Maxima",
    "city": "Vilnius",
    "time": "3/14/2020 13:00",
    "latitude": 54.70202915,
    "longitude": 25.2889677656,
    "timestamp": 1584183600.0
  },
  {
    "id": 9,
    "address": "Ukmergės g. 282",
    "name": "Ukmergės Maxima",
    "city": "Vilnius",
    "time": "3/13/2020 21:00",
    "latitude": 54.72769525,
    "longitude": 25.2390955605,
    "timestamp": 1584126000.0
  },
  {
    "id": 10,
    "address": "Venecijos akl. 2",
    "name": "Atostogų parkas",
    "city": "Žibininkai",
    "time": "3/10/2020 6:00",
    "latitude": 55.95819,
    "longitude": 21.1244578,
    "timestamp": 1583812800.0
  },
  {
    "id": 11,
    "address": "Paupio g. 1a",
    "name": "Rietavo šeimos daktaras",
    "city": "Rietavas",
    "time": "3/12/2020 6:00",
    "latitude": 55.7251985,
    "longitude": 21.929251,
    "timestamp": 1583985600.0
  },
  {
    "id": 12,
    "address": "Sabališkių g. 1",
    "name": "Norfa XXL",
    "city": "Elektrėnai",
    "time": "3/13/2020 16:00",
    "latitude": 54.7878058,
    "longitude": 24.6803446,
    "timestamp": 1584108000.0
  },
  {
    "id": 13,
    "address": "Ateities g. 10",
    "name": "Norfa",
    "city": "Vilnius",
    "time": "3/14/2020 15:00",
    "latitude": 54.7368678,
    "longitude": 25.2679029,
    "timestamp": 1584190800.0
  },
  {
    "id": 14,
    "address": "Nemenčinės pl. 2",
    "name": "IKI",
    "city": "Vilnius",
    "time": "3/14/2020 14:00",
    "latitude": 54.72415265,
    "longitude": 25.3195956362,
    "timestamp": 1584187200.0
  },
  {
    "id": 15,
    "address": "Oro uosto g. 4",
    "name": "Kauno oro uostas",
    "city": "Kaunas",
    "time": "2/24/2020 15:30",
    "latitude": 54.9671759,
    "longitude": 24.0740002,
    "timestamp": 1582551000.0
  },
  {
    "id": 16,
    "address": "Karaliaus Mindaugo pr. 49",
    "name": "Kauno Akropolis",
    "city": "Kaunas",
    "time": "3/7/2020 6:00",
    "latitude": 54.8905008,
    "longitude": 23.9196209,
    "timestamp": 1583553600.0
  },
  {
    "id": 17,
    "address": "Oro uosto g. 4",
    "name": "Kauno oro uostas",
    "city": "Kaunas",
    "time": "2/29/2020 6:00",
    "latitude": 54.9671759,
    "longitude": 24.0740002,
    "timestamp": 1582948800.0
  },
  {
    "id": 18,
    "address": "Liepojos pl. 1",
    "name": "Palangos oro uostas",
    "city": "Palanga",
    "time": "3/9/2020 0:10",
    "latitude": 55.97145935,
    "longitude": 21.0972893706,
    "timestamp": 1583705400.0
  },
  {
    "id": 19,
    "address": "Rodūnios kl. 10A",
    "name": "Vilniaus oro uostas",
    "city": "Vilnius",
    "time": "3/8/2020 14:20",
    "latitude": 54.6408829,
    "longitude": 25.2697976,
    "timestamp": 1583670000.0
  },
  {
    "id": 20,
    "address": "Oro uosto g. 4",
    "name": "Kauno oro uostas",
    "city": "Kaunas",
    "time": "3/10/2020 14:20",
    "latitude": 54.9671759,
    "longitude": 24.0740002,
    "timestamp": 1583842800.0
  },
  {
    "id": 21,
    "address": "Sodų g. 22",
    "name": " Vilniaus stotis",
    "city": "Vilnius",
    "time": "3/11/2020 14:50",
    "latitude": 54.67076335,
    "longitude": 25.2818261837,
    "timestamp": 1583931000.0
  },
  {
    "id": 22,
    "address": "Klaipėdos pl. 42",
    "name": " Palangos stotis",
    "city": "Palanga",
    "time": "3/11/2020 18:50",
    "latitude": 55.9130926,
    "longitude": 21.0780725799,
    "timestamp": 1583945400.0
  },
  {
    "id": 23,
    "address": "Rodūnios kl. 10A",
    "name": "Vilniaus oro uostas",
    "city": "Vilnius",
    "time": "3/12/2020 13:30",
    "latitude": 54.6408829,
    "longitude": 25.2697976,
    "timestamp": 1584012600.0
  },
  {
    "id": 24,
    "address": "Rodūnios kl. 10A",
    "name": "Vilniaus oro uostas",
    "city": "Vilnius",
    "time": "3/14/2020 20:40",
    "latitude": 54.6408829,
    "longitude": 25.2697976,
    "timestamp": 1584211200.0
  },
  {
    "id": 25,
    "address": "Ukmergės g. 238",
    "name": "Hesburger",
    "city": "Vilnius",
    "time": "3/12/2020 14:00",
    "latitude": 54.72011815,
    "longitude": 25.24388955,
    "timestamp": 1584014400.0
  },
  {
    "id": 26,
    "address": "Pramonės g. 97-1",
    "name": "Šaudymo centras",
    "city": "Vilnius",
    "time": "3/12/2020 15:00",
    "latitude": 54.6953864,
    "longitude": 25.4223978,
    "timestamp": 1584018000.0
  },
  {
    "id": 27,
    "address": "Klaipėdos g. 103",
    "name": "Eurokos parduotuvė",
    "city": "Panevėžys",
    "time": "3/12/2020 18:00",
    "latitude": 55.729084,
    "longitude": 24.3244689,
    "timestamp": 1584028800.0
  },
  {
    "id": 28,
    "address": "Veiverių g. 61a",
    "name": "Hardman auto salonas",
    "city": "Kaunas",
    "time": "3/13/2020 11:30",
    "latitude": 54.873879,
    "longitude": 23.8917495905,
    "timestamp": 1584091800.0
  },
  {
    "id": 29,
    "address": "Rodūnios kl. 10A",
    "name": "Vilniaus oro uostas",
    "city": "Vilnius",
    "time": "3/13/2020 23:55",
    "latitude": 54.6408829,
    "longitude": 25.2697976,
    "timestamp": 1584136500.0
  },
  {
    "id": 30,
    "address": "Oro uosto g. 4",
    "name": "Kauno oro uostas",
    "city": "Kaunas",
    "time": "3/9/2020 14:25",
    "latitude": 54.9671759,
    "longitude": 24.0740002,
    "timestamp": 1583756700.0
  },
  {
    "id": 31,
    "address": "Luokės g. 76",
    "name": "Norfos vaistinė",
    "city": "Telšiai",
    "time": "3/6/2020 6:00",
    "latitude": 55.97528555,
    "longitude": 22.2677363639,
    "timestamp": 1583467200.0
  },
  {
    "id": 32,
    "address": "S. Daukanto g. 1",
    "name": "Maxima",
    "city": "Telšiai",
    "time": "3/10/2020 6:00",
    "latitude": 56.30833225,
    "longitude": 22.3387962555,
    "timestamp": 1583812800.0
  },
  {
    "id": 33,
    "address": "Kauno g. 21",
    "name": "MON",
    "city": "Telšiai",
    "time": "3/11/2020 16:00",
    "latitude": 55.974179,
    "longitude": 22.2678,
    "timestamp": 1583935200.0
  },
  {
    "id": 34,
    "address": "Luokės g. 74a",
    "name": "LIDL",
    "city": "Telšiai",
    "time": "3/11/2020 17:00",
    "latitude": 55.9792337,
    "longitude": 22.2623886,
    "timestamp": 1583938800.0
  },
  {
    "id": 35,
    "address": "Luokės g. 76",
    "name": "Norfos svaistinė",
    "city": "Telšiai",
    "time": "3/12/2020 6:00",
    "latitude": 55.97528555,
    "longitude": 22.2677363639,
    "timestamp": 1583985600.0
  },
  {
    "id": 36,
    "address": "Luokės g. 76",
    "name": "Norfa",
    "city": "Telšiai",
    "time": "3/13/2020 6:00",
    "latitude": 55.97528555,
    "longitude": 22.2677363639,
    "timestamp": 1584072000.0
  },
  {
    "id": 37,
    "address": "Butkų Juzės g. 9",
    "name": "Klaipėdos autobusų stotis",
    "city": "Klaipeda",
    "time": "3/12/2020 16:30",
    "latitude": 55.7198641,
    "longitude": 21.1376272,
    "timestamp": 1584023400.0
  },
  {
    "id": 38,
    "address": "Vytauto pr. 24",
    "name": "Kauno autobusų stotis",
    "city": "Kaunas",
    "time": "3/12/2020 14:00",
    "latitude": 54.8890485,
    "longitude": 23.9278384,
    "timestamp": 1584014400.0
  },
  {
    "id": 39,
    "address": "Oro uosto g. 4",
    "name": "Kauno oro uostas",
    "city": "Kaunas",
    "time": "3/12/2020 12:10",
    "latitude": 54.9671759,
    "longitude": 24.0740002,
    "timestamp": 1584007800.0
  },
  {
    "id": 40,
    "address": "Rodūnios kl. 10A",
    "name": "Vilniaus oro uostas",
    "city": "Vilnius",
    "time": "3/15/2020 6:00",
    "latitude": 54.6408829,
    "longitude": 25.2697976,
    "timestamp": 1584244800.0
  },
  {
    "id": 41,
    "address": "Rodūnios kl. 10A",
    "name": "Vilniaus oro uostas",
    "city": "Vilnius",
    "time": "3/17/2020 2:00",
    "latitude": 54.6408829,
    "longitude": 25.2697976,
    "timestamp": 1584403200.0
  },
  {
    "id": 42,
    "address": "Sabališkių g 1",
    "name": "Norfa",
    "city": "Elektrėnai",
    "time": "3/13/2020 16:00",
    "latitude": 54.7878058,
    "longitude": 24.6803446,
    "timestamp": 1584108000.0
  },
  {
    "id": 43,
    "address": "Oro uosto g. 4",
    "name": "Kauno oro uostas",
    "city": "Kaunas",
    "time": "3/9/2020 6:00",
    "latitude": 54.9671759,
    "longitude": 24.0740002,
    "timestamp": 1583726400.0
  },
  {
    "id": 44,
    "address": "Rodūnios kl. 10A",
    "name": "Vilniaus oro uostas",
    "city": "Vilnius",
    "time": "3/14/2020 6:00",
    "latitude": 54.6408829,
    "longitude": 25.2697976,
    "timestamp": 1584158400.0
  },
  {
    "id": 45,
    "address": "Oro uosto g. 4",
    "name": "Kauno oro uostas",
    "city": "Kaunas",
    "time": "3/14/2020 20:00",
    "latitude": 54.9671759,
    "longitude": 24.0740002,
    "timestamp": 1584208800.0
  },
  {
    "id": 46,
    "address": "Ateities g. 10",
    "name": "Norfa",
    "city": "Vilnius",
    "time": "3/14/2020 15:00",
    "latitude": 54.7368678,
    "longitude": 25.2679029,
    "timestamp": 1584190800.0
  },
  {
    "id": 47,
    "address": "Veiverių g. 27",
    "name": "Camelia",
    "city": "Kaunas",
    "time": "3/16/2020 14:30",
    "latitude": 54.8854648,
    "longitude": 23.8956459613,
    "timestamp": 1584361800.0
  },
  {
    "id": 48,
    "address": "Veiverių g. 25",
    "name": "Aibe",
    "city": "Kaunas",
    "time": "3/14/2020 14:00",
    "latitude": 54.88575085,
    "longitude": 23.8957239297,
    "timestamp": 1584187200.0
  },
  {
    "id": 49,
    "address": "Oro uosto g. 4",
    "name": "Kauno oro uostas",
    "city": "Kaunas",
    "time": "3/11/2020 18:00",
    "latitude": 54.9671759,
    "longitude": 24.0740002,
    "timestamp": 1583942400.0
  },
  {
    "id": 50,
    "address": "Veiverių g. 112",
    "name": "Express Market",
    "city": "Kaunas",
    "time": "3/14/2020 14:00",
    "latitude": 54.8847714,
    "longitude": 23.8945653427,
    "timestamp": 1584187200.0
  },
  {
    "id": 51,
    "address": "Veiverių g. 47",
    "name": "Aleksoto turgus",
    "city": "Kaunas",
    "time": "3/14/2020 8:30",
    "latitude": 54.8743478,
    "longitude": 23.8912446,
    "timestamp": 1584167400.0
  },
  {
    "id": 52,
    "address": "Rodūnios kl. 10A",
    "name": "Vilniaus oro uostas",
    "city": "Vilnius",
    "time": "3/13/2020 6:00",
    "latitude": 54.6408829,
    "longitude": 25.2697976,
    "timestamp": 1584072000.0
  },
  {
    "id": 53,
    "address": "Rodūnios kl. 10A",
    "name": "Vilniaus oro uostas",
    "city": "Vilnius",
    "time": "3/16/2020 6:00",
    "latitude": 54.6408829,
    "longitude": 25.2697976,
    "timestamp": 1584331200.0
  },
  {
    "id": 54,
    "address": "Antakalnio g. 59",
    "name": "Antakalnio Poliklinikos",
    "city": "Vilnius",
    "time": "3/13/2020 15:00",
    "latitude": 54.7109414,
    "longitude": 25.3163862845,
    "timestamp": 1584104400.0
  },
  {
    "id": 55,
    "address": "Polocko 44",
    "name": "MediCA klinika",
    "city": "Vilnius",
    "time": "3/13/2020 14:00",
    "latitude": 54.6820732,
    "longitude": 25.3119981,
    "timestamp": 1584100800.0
  },
  {
    "id": 56,
    "address": "Liepojos pl. 1",
    "name": "Palangos oro uostas",
    "city": "Palanga",
    "time": "3/16/2020 15:25",
    "latitude": 55.97145935,
    "longitude": 21.0972893706,
    "timestamp": 1584365100.0
  },
  {
    "id": 57,
    "address": "Rodūnios kl. 10A",
    "name": "Vilniaus oro uostas",
    "city": "Vilnius",
    "time": "3/14/2020 18:00",
    "latitude": 54.6408829,
    "longitude": 25.2697976,
    "timestamp": 1584201600.0
  },
  {
    "id": 58,
    "address": "Oro uosto g. 4",
    "name": "Kauno oro uostas",
    "city": "Kaunas",
    "time": "3/14/2020 6:00",
    "latitude": 54.9671759,
    "longitude": 24.0740002,
    "timestamp": 1584158400.0
  },
  {
    "id": 59,
    "address": "Stoties g. 1",
    "name": "Jonavos Geležinkelio stotis",
    "city": "Jonava",
    "time": "3/4/2020 6:00",
    "latitude": 55.0905599,
    "longitude": 24.2756546,
    "timestamp": 1583294400.0
  },
  {
    "id": 60,
    "address": "Geležinkelio g. 16",
    "name": "Vilniaus Geležinkelio stotis",
    "city": "Vilnius",
    "time": "3/4/2020 6:00",
    "latitude": 54.67022035,
    "longitude": 25.2843683972,
    "timestamp": 1583294400.0
  },
  {
    "id": 61,
    "address": "Rodūnios kl. 10A",
    "name": "Vilniaus oro uostas",
    "city": "Vilnius",
    "time": "3/3/2020 6:00",
    "latitude": 54.6408829,
    "longitude": 25.2697976,
    "timestamp": 1583208000.0
  },
  {
    "id": 62,
    "address": "Rodūnios kl. 10A",
    "name": "Vilniaus oro uostas",
    "city": "Vilnius",
    "time": "3/14/2020 23:35",
    "latitude": 54.6408829,
    "longitude": 25.2697976,
    "timestamp": 1584221700.0
  },
  {
    "id": 63,
    "address": "Oro uosto g. 4",
    "name": "Kauno oro uostas",
    "city": "Kaunas",
    "time": "3/16/2020",
    "latitude": 54.9671759,
    "longitude": 24.0740002,
    "timestamp": 1584309600.0
  },
  {
    "id": 64,
    "address": "Oro uosto g. 5",
    "name": "Kauno oro uostas",
    "city": "Kaunas",
    "time": "3/19/2020",
    "latitude": 54.9699837,
    "longitude": 24.0711689,
    "timestamp": 1584568800.0
  },
  {
    "id": 65,
    "address": "Oro uosto g. 6",
    "name": "Kauno oro uostas",
    "city": "Kaunas",
    "time": "3/16/2020",
    "latitude": 54.9655698,
    "longitude": 24.0736668,
    "timestamp": 1584309600.0
  },
  {
    "id": 66,
    "address": "Oro uosto g. 7",
    "name": "Kauno oro uostas",
    "city": "Kaunas",
    "time": "3/21/2020",
    "latitude": 54.9665137,
    "longitude": 24.075195,
    "timestamp": 1584741600.0
  },
  {
    "id": 67,
    "address": "Rodūnios kl. 10A",
    "name": "Vilniaus oro uostas",
    "city": "Vilnius",
    "time": "3/14/2020",
    "latitude": 54.6408829,
    "longitude": 25.2697976,
    "timestamp": 1584136800.0
  },
  {
    "id": 68,
    "address": "Rodūnios kl. 10A",
    "name": "Vilniaus oro uostas",
    "city": "Vilnius",
    "time": "3/15/2020",
    "latitude": 54.6408829,
    "longitude": 25.2697976,
    "timestamp": 1584223200.0
  },
  {
    "id": 69,
    "address": "Rodūnios kl. 10A",
    "name": "Vilniaus oro uostas",
    "city": "Vilnius",
    "time": "3/19/2020",
    "latitude": 54.6408829,
    "longitude": 25.2697976,
    "timestamp": 1584568800.0
  },
  {
    "id": 70,
    "address": "Rodūnios kl. 10A",
    "name": "Vilniaus oro uostas",
    "city": "Vilnius",
    "time": "3/14/2020",
    "latitude": 54.6408829,
    "longitude": 25.2697976,
    "timestamp": 1584136800.0
  },
  {
    "id": 71,
    "address": "Rodūnios kl. 10A",
    "name": "Vilniaus oro uostas",
    "city": "Vilnius",
    "time": "3/13/2020",
    "latitude": 54.6408829,
    "longitude": 25.2697976,
    "timestamp": 1584050400.0
  },
  {
    "id": 72,
    "address": "Rodūnios kl. 10A",
    "name": "Vilniaus oro uostas",
    "city": "Vilnius",
    "time": "3/3/2020",
    "latitude": 54.6408829,
    "longitude": 25.2697976,
    "timestamp": 1583186400.0
  },
  {
    "id": 73,
    "address": "Rodūnios kl. 10A",
    "name": "Vilniaus oro uostas",
    "city": "Vilnius",
    "time": "3/14/2020",
    "latitude": 54.6408829,
    "longitude": 25.2697976,
    "timestamp": 1584136800.0
  },
  {
    "id": 74,
    "address": "Ateities g. 10",
    "name": "Norfa",
    "city": "Vilnius",
    "time": "3/15/2020",
    "latitude": 54.7368678,
    "longitude": 25.2679029,
    "timestamp": 1584223200.0
  },
  {
    "id": 75,
    "address": "Rodūnios kl. 10A",
    "name": "Vilniaus oro uostas",
    "city": "Vilnius",
    "time": "3/14/2020",
    "latitude": 54.6408829,
    "longitude": 25.2697976,
    "timestamp": 1584136800.0
  },
  {
    "id": 76,
    "address": "Rodūnios kl. 10A",
    "name": "Vilniaus oro uostas",
    "city": "Vilnius",
    "time": "3/13/2020",
    "latitude": 54.6408829,
    "longitude": 25.2697976,
    "timestamp": 1584050400.0
  },
  {
    "id": 77,
    "address": "Rodūnios kl. 10A",
    "name": "Vilniaus oro uostas",
    "city": "Vilnius",
    "time": "3/13/2020",
    "latitude": 54.6408829,
    "longitude": 25.2697976,
    "timestamp": 1584050400.0
  },
  {
    "id": 78,
    "address": "Kry\u009ekalnis 60375",
    "name": "Kryzkalnio autobusų stotis",
    "city": "Kryzkalnis",
    "time": "3/9/2020",
    "latitude": 55.4690625,
    "longitude": 22.6904313,
    "timestamp": 1583704800.0
  },
  {
    "id": 79,
    "address": "Dariaus ir Girėno g.112",
    "name": "Norfa XL",
    "city": "Jurbarkas",
    "time": "3/20/2020",
    "latitude": 55.0789049,
    "longitude": 22.7748412,
    "timestamp": 1584655200.0
  },
  {
    "id": 80,
    "address": "Dariaus ir Girėno g.112",
    "name": "Norfa XL",
    "city": "Jurbarkas",
    "time": "3/19/2020",
    "latitude": 55.0789049,
    "longitude": 22.7748412,
    "timestamp": 1584568800.0
  },
  {
    "id": 81,
    "address": "Dariaus ir Girėno g.112",
    "name": "Norfa XL",
    "city": "Jurbarkas",
    "time": "3/18/2020",
    "latitude": 55.0789049,
    "longitude": 22.7748412,
    "timestamp": 1584482400.0
  },
  {
    "id": 82,
    "address": "Dariaus ir Girėno g.112",
    "name": "Norfa XL",
    "city": "Jurbarkas",
    "time": "3/17/2020",
    "latitude": 55.0789049,
    "longitude": 22.7748412,
    "timestamp": 1584396000.0
  },
  {
    "id": 83,
    "address": "Dariaus ir Girėno g.112",
    "name": "Norfa XL",
    "city": "Jurbarkas",
    "time": "3/16/2020",
    "latitude": 55.0789049,
    "longitude": 22.7748412,
    "timestamp": 1584309600.0
  },
  {
    "id": 84,
    "address": "Dariaus ir Girėno g.112",
    "name": "Norfa XL",
    "city": "Jurbarkas",
    "time": "3/15/2020",
    "latitude": 55.0789049,
    "longitude": 22.7748412,
    "timestamp": 1584223200.0
  },
  {
    "id": 85,
    "address": "Dariaus ir Girėno g.112",
    "name": "Norfa XL",
    "city": "Jurbarkas",
    "time": "3/14/2020",
    "latitude": 55.0789049,
    "longitude": 22.7748412,
    "timestamp": 1584136800.0
  },
  {
    "id": 86,
    "address": "Dariaus ir Girėno g.112",
    "name": "Norfa XL",
    "city": "Jurbarkas",
    "time": "3/13/2020",
    "latitude": 55.0789049,
    "longitude": 22.7748412,
    "timestamp": 1584050400.0
  },
  {
    "id": 87,
    "address": "Dariaus ir Girėno g.112",
    "name": "Norfa XL",
    "city": "Jurbarkas",
    "time": "3/12-2020",
    "latitude": 55.0789049,
    "longitude": 22.7748412,
    "timestamp": 1583964000.0
  },
  {
    "id": 88,
    "address": "Dariaus ir Girėno g.112",
    "name": "Norfa XL",
    "city": "Jurbarkas",
    "time": "3-11-2020",
    "latitude": 55.0789049,
    "longitude": 22.7748412,
    "timestamp": 1583877600.0
  },
  {
    "id": 89,
    "address": "Dariaus ir Girėno g.112",
    "name": "Norfa XL",
    "city": "Jurbarkas",
    "time": "3-10/2020",
    "latitude": 55.0789049,
    "longitude": 22.7748412,
    "timestamp": 1583791200.0
  },
  {
    "id": 90,
    "address": "Dariaus ir Girėno g.112",
    "name": "Norfa XL",
    "city": "Jurbarkas",
    "time": "3/9/2020",
    "latitude": 55.0789049,
    "longitude": 22.7748412,
    "timestamp": 1583704800.0
  },
  {
    "id": 91,
    "address": "Liepojos pl. 1",
    "name": "Palangos oro uostas",
    "city": "Palanga",
    "time": "3/9/2020 09:55",
    "latitude": 55.9732225,
    "longitude": 21.0926135,
    "timestamp": 1583747700.0
  },
  {
    "id": 92,
    "address": "Rodūnios kl. 10A",
    "name": "Vilniaus oro uostas",
    "city": "Vilnius",
    "time": "3/13/2020 23:00",
    "latitude": 54.6408829,
    "longitude": 25.2697976,
    "timestamp": 1584140400.0
  },
  {
    "id": 93,
    "address": "Rodūnios kl. 10A",
    "name": "Vilniaus oro uostas",
    "city": "Vilnius",
    "time": "3/13/2020 23:00",
    "latitude": 54.6408829,
    "longitude": 25.2697976,
    "timestamp": 1584140400.0
  },
  {
    "id": 94,
    "address": "Laukininkų g. 19",
    "name": "IKI - Vyturys parduotuvė",
    "city": "Klaipėda",
    "time": "3/18/2020",
    "latitude": 55.6642043,
    "longitude": 21.1893481,
    "timestamp": 1584529200.0
  },
  {
    "id": 95,
    "address": "Vingio g. 29",
    "name": "RIMI parduotuvė",
    "city": "Klaipėda",
    "time": "3/20/2020",
    "latitude": 55.667809,
    "longitude": 21.1946043,
    "timestamp": 1584698400.0
  },
  {
    "id": 96,
    "address": "Oro uosto g. 4",
    "name": "Kauno oro uostas",
    "city": "Kaunas",
    "time": "3/18/2020 12:30",
    "latitude": 54.9671759,
    "longitude": 24.0740002,
    "timestamp": 1584534600.0
  },
  {
    "id": 97,
    "address": "Oro uosto g. 4",
    "name": "Kauno oro uostas",
    "city": "Kaunas",
    "time": "3/17/2020 12:30",
    "latitude": 54.9671759,
    "longitude": 24.0740002,
    "timestamp": 1584405000.0
  },
  {
    "id": 98,
    "address": "Oro uosto g. 4",
    "name": "Kauno oro uostas",
    "city": "Kaunas",
    "time": "3/09/2020",
    "latitude": 54.9671759,
    "longitude": 24.0740002,
    "timestamp": 1583735400.0
  },
  {
    "id": 99,
    "address": "Oro uosto g. 4",
    "name": "Kauno oro uostas",
    "city": "Kaunas",
    "time": "3/19/2020",
    "latitude": 54.9671759,
    "longitude": 24.0740002,
    "timestamp": 1584541200.0
  },
  {
    "id": 100,
    "address": "Liepojos pl. 1",
    "name": "Palangos oro uostas",
    "city": "Palanga",
    "time": "3/16/2020",
    "latitude": 55.97145935,
    "longitude": 21.0972893706,
    "timestamp": 1584345600.0
  },
  {
    "id": 101,
    "address": "Rodūnios kl. 10A",
    "name": "Vilniaus oro uostas",
    "city": "Vilnius",
    "time": "3/21/2020 14:00",
    "latitude": 54.6408829,
    "longitude": 25.2697976,
    "timestamp": 1584799200.0
  },
  {
    "id": 101,
    "address": "H. Manto g. 84",
    "name": "Klaipėdos universitetinė ligoninė",
    "city": "Klaipėda",
    "time": "3/21/2020 18:00",
    "latitude": 55.7245311,
    "longitude": 21.1215997,
    "timestamp": 1584799200.0
  }
]
